{
   '1990':{
      'Belarus':[
         {
            'destination':{
               'city':'Minsk',
               'country':'Belarus',
               'latitude':53.89997744,
               'longitude':27.56662716
            },
            'migrants':'791522',
            'origin':{
               'city':'Moscow',
               'country':'Russia',
               'latitude':55.75216412,
               'longitude':37.61552283
            }
         }
      ],
      'Ethiopia':[
         {
            'destination':{
               'city':'Addis Ababa',
               'country':'Ethiopia',
               'latitude':9.033310363,
               'longitude':38.70000443
            },
            'migrants':'616940',
            'origin':{
               'city':'Mogadishu',
               'country':'Somalia',
               'latitude':2.066681334,
               'longitude':45.36667761
            }
         }
      ],
      'India':[
         {
            'destination':{
               'city':'Kolkata',
               'country':'India',
               'latitude':22.4949693,
               'longitude':88.32467566
            },
            'migrants':'4375155',
            'origin':{
               'city':'Chittagong',
               'country':'Bangladesh',
               'latitude':22.32999229,
               'longitude':91.79996741
            }
         },
         {
            'destination':{
               'city':'Kolkata',
               'country':'India',
               'latitude':22.4949693,
               'longitude':88.32467566
            },
            'migrants':'518212',
            'origin':{
               'city':'Kathmandu',
               'country':'Nepal',
               'latitude':27.71669191,
               'longitude':85.31664221
            }
         },
         {
            'destination':{
               'city':'Kolkata',
               'country':'India',
               'latitude':22.4949693,
               'longitude':88.32467566
            },
            'migrants':'1921278',
            'origin':{
               'city':'Karachi',
               'country':'Pakistan',
               'latitude':24.86999229,
               'longitude':66.99000891
            }
         }
      ],
      'Kazakhstan':[
         {
            'destination':{
               'city':'Almaty',
               'country':'Kazakhstan',
               'latitude':43.32498985,
               'longitude':76.91503617
            },
            'migrants':'2474111',
            'origin':{
               'city':'Moscow',
               'country':'Russia',
               'latitude':55.75216412,
               'longitude':37.61552283
            }
         }
      ],
      'Malawi':[
         {
            'destination':{
               'city':'Lilongwe',
               'country':'Malawi',
               'latitude':-13.98329507,
               'longitude':33.78330196
            },
            'migrants':'1075410',
            'origin':{
               'city':'Maputo',
               'country':'Mozambique',
               'latitude':-25.95527749,
               'longitude':32.58916296
            }
         }
      ],
      'Pakistan':[
         {
            'destination':{
               'city':'Karachi',
               'country':'Pakistan',
               'latitude':24.86999229,
               'longitude':66.99000891
            },
            'migrants':'3276673',
            'origin':{
               'city':'Kabul',
               'country':'Afghanistan',
               'latitude':34.51669029,
               'longitude':69.18326005
            }
         },
         {
            'destination':{
               'city':'Karachi',
               'country':'Pakistan',
               'latitude':24.86999229,
               'longitude':66.99000891
            },
            'migrants':'2916548',
            'origin':{
               'city':'Kolkata',
               'country':'India',
               'latitude':22.4949693,
               'longitude':88.32467566
            }
         }
      ],
      'Russia':[
         {
            'destination':{
               'city':'Moscow',
               'country':'Russia',
               'latitude':55.75216412,
               'longitude':37.61552283
            },
            'migrants':'535266',
            'origin':{
               'city':'Yerevan',
               'country':'Armenia',
               'latitude':40.18115074,
               'longitude':44.51355139
            }
         },
         {
            'destination':{
               'city':'Moscow',
               'country':'Russia',
               'latitude':55.75216412,
               'longitude':37.61552283
            },
            'migrants':'936852',
            'origin':{
               'city':'Baku',
               'country':'Azerbaijan',
               'latitude':40.39527203,
               'longitude':49.86221716
            }
         },
         {
            'destination':{
               'city':'Moscow',
               'country':'Russia',
               'latitude':55.75216412,
               'longitude':37.61552283
            },
            'migrants':'809353',
            'origin':{
               'city':'Minsk',
               'country':'Belarus',
               'latitude':53.89997744,
               'longitude':27.56662716
            }
         },
         {
            'destination':{
               'city':'Moscow',
               'country':'Russia',
               'latitude':55.75216412,
               'longitude':37.61552283
            },
            'migrants':'656888',
            'origin':{
               'city':'Tbilisi',
               'country':'Georgia',
               'latitude':41.72500999,
               'longitude':44.79079545
            }
         },
         {
            'destination':{
               'city':'Moscow',
               'country':'Russia',
               'latitude':55.75216412,
               'longitude':37.61552283
            },
            'migrants':'2349697',
            'origin':{
               'city':'Almaty',
               'country':'Kazakhstan',
               'latitude':43.32498985,
               'longitude':76.91503617
            }
         },
         {
            'destination':{
               'city':'Moscow',
               'country':'Russia',
               'latitude':55.75216412,
               'longitude':37.61552283
            },
            'migrants':'3301922',
            'origin':{
               'city':'Kiev',
               'country':'Ukraine',
               'latitude':50.43336733,
               'longitude':30.51662797
            }
         },
         {
            'destination':{
               'city':'Moscow',
               'country':'Russia',
               'latitude':55.75216412,
               'longitude':37.61552283
            },
            'migrants':'890893',
            'origin':{
               'city':'Tashkent',
               'country':'Uzbekistan',
               'latitude':41.31170188,
               'longitude':69.29493282
            }
         }
      ],
      'Saudi Arabia':[
         {
            'destination':{
               'city':'Riyadh',
               'country':'Saudi Arabia',
               'latitude':24.64083315,
               'longitude':46.77274166
            },
            'migrants':'906468',
            'origin':{
               'city':'Kolkata',
               'country':'India',
               'latitude':22.4949693,
               'longitude':88.32467566
            }
         },
         {
            'destination':{
               'city':'Riyadh',
               'country':'Saudi Arabia',
               'latitude':24.64083315,
               'longitude':46.77274166
            },
            'migrants':'635007',
            'origin':{
               'city':'Jakarta',
               'country':'Indonesia',
               'latitude':-6.174417705,
               'longitude':106.82943759999999
            }
         },
         {
            'destination':{
               'city':'Riyadh',
               'country':'Saudi Arabia',
               'latitude':24.64083315,
               'longitude':46.77274166
            },
            'migrants':'556715',
            'origin':{
               'city':'Karachi',
               'country':'Pakistan',
               'latitude':24.86999229,
               'longitude':66.99000891
            }
         }
      ],
      'Sudan':[
         {
            'destination':{
               'city':'Khartoum',
               'country':'Sudan',
               'latitude':15.58807823,
               'longitude':32.53417924
            },
            'migrants':'942295',
            'origin':{
               'city':'Addis Ababa',
               'country':'Ethiopia',
               'latitude':9.033310363,
               'longitude':38.70000443
            }
         }
      ],
      'Uzbekistan':[
         {
            'destination':{
               'city':'Tashkent',
               'country':'Uzbekistan',
               'latitude':41.31170188,
               'longitude':69.29493282
            },
            'migrants':'1267201',
            'origin':{
               'city':'Moscow',
               'country':'Russia',
               'latitude':55.75216412,
               'longitude':37.61552283
            }
         }
      ]
   },
   '1991':{

   },
   '1992':{

   } 
}
